timestamp_unix,timestamp_readable,latitude,longitude,gps_quality,num_satellites,horizontal_dilution,altitude,altitude_units,geoid_height,geoid_height_units,dgps_time,dgps_station_id,raw_sentence,hz_instantaneous,hz_average
1749735917.2848349,2025-06-12 20:45:17.284,-7.283585666666666,112.796716,2,08,0.93,19.9,M,17.3,M,,0000,"$GPGGA,134517.00,0717.01514,S,11247.80296,E,2,08,0.93,19.9,M,17.3,M,,0000*75",0.0,2.68
1749735918.290167,2025-06-12 20:45:18.290,-7.283586166666667,112.79671616666667,2,08,0.82,20.1,M,17.3,M,,0000,"$GPGGA,134518.00,0717.01517,S,11247.80297,E,2,08,0.82,20.1,M,17.3,M,,0000*7A",0.99,1.45
1749735919.2859385,2025-06-12 20:45:19.285,-7.283587,112.7967165,2,08,0.82,20.1,M,17.3,M,,0000,"$GPGGA,134519.00,0717.01522,S,11247.80299,E,2,08,0.82,20.1,M,17.3,M,,0000*73",1.0,1.26
1749735920.2873163,2025-06-12 20:45:20.287,-7.283587833333334,112.796717,2,08,0.82,20.2,M,17.3,M,,0000,"$GPGGA,134520.00,0717.01527,S,11247.80302,E,2,08,0.82,20.2,M,17.3,M,,0000*7C",1.0,1.19
1749735921.2891445,2025-06-12 20:45:21.289,-7.2835885,112.79671733333333,2,08,0.82,20.3,M,17.3,M,,0000,"$GPGGA,134521.00,0717.01531,S,11247.80304,E,2,08,0.82,20.3,M,17.3,M,,0000*7D",1.0,1.14
1749735922.282885,2025-06-12 20:45:22.282,-7.2835893333333335,112.7967185,2,08,0.82,20.4,M,17.3,M,,0000,"$GPGGA,134522.00,0717.01536,S,11247.80311,E,2,08,0.82,20.4,M,17.3,M,,0000*7A",1.0,1.12
1749735923.2856898,2025-06-12 20:45:23.285,-7.2835901666666665,112.796719,2,08,0.82,20.5,M,17.3,M,,0000,"$GPGGA,134523.00,0717.01541,S,11247.80314,E,2,08,0.82,20.5,M,17.3,M,,0000*7F",1.0,1.1
1749735924.289691,2025-06-12 20:45:24.289,-7.283591166666667,112.7967195,2,08,0.82,20.7,M,17.3,M,,0000,"$GPGGA,134524.00,0717.01547,S,11247.80317,E,2,08,0.82,20.7,M,17.3,M,,0000*7F",1.0,1.08
1749735925.289144,2025-06-12 20:45:25.289,-7.283592166666667,112.796721,2,08,0.82,21.0,M,17.3,M,,0000,"$GPGGA,134525.00,0717.01553,S,11247.80326,E,2,08,0.82,21.0,M,17.3,M,,0000*7F",1.0,1.07
1749735926.2867067,2025-06-12 20:45:26.286,-7.283593,112.79672133333334,2,08,0.82,21.1,M,17.3,M,,0000,"$GPGGA,134526.00,0717.01558,S,11247.80328,E,2,08,0.82,21.1,M,17.3,M,,0000*78",1.0,1.07
1749735927.287156,2025-06-12 20:45:27.287,-7.2835936666666665,112.7967215,2,08,0.82,21.0,M,17.3,M,,0000,"$GPGGA,134527.00,0717.01562,S,11247.80329,E,2,08,0.82,21.0,M,17.3,M,,0000*70",1.0,1.06
1749735928.2857199,2025-06-12 20:45:28.285,-7.283594166666667,112.79672183333334,2,08,0.82,21.0,M,17.3,M,,0000,"$GPGGA,134528.00,0717.01565,S,11247.80331,E,2,08,0.82,21.0,M,17.3,M,,0000*71",1.0,1.06
1749735929.2869442,2025-06-12 20:45:29.286,-7.2835945,112.79672183333334,2,08,0.82,20.8,M,17.3,M,,0000,"$GPGGA,134529.00,0717.01567,S,11247.80331,E,2,08,0.82,20.8,M,17.3,M,,0000*7B",1.0,1.05
1749735930.289994,2025-06-12 20:45:30.289,-7.283594666666667,112.796722,2,08,0.82,20.7,M,17.3,M,,0000,"$GPGGA,134530.00,0717.01568,S,11247.80332,E,2,08,0.82,20.7,M,17.3,M,,0000*70",1.0,1.05
1749735931.2837253,2025-06-12 20:45:31.283,-7.283594833333333,112.796722,2,08,0.82,20.5,M,17.3,M,,0000,"$GPGGA,134531.00,0717.01569,S,11247.80332,E,2,08,0.82,20.5,M,17.3,M,,0000*72",1.0,1.04
1749735932.2862313,2025-06-12 20:45:32.286,-7.283595,112.79672216666667,2,08,0.82,20.6,M,17.3,M,,0000,"$GPGGA,134532.00,0717.01570,S,11247.80333,E,2,08,0.82,20.6,M,17.3,M,,0000*7B",1.0,1.04
1749735933.2816076,2025-06-12 20:45:33.281,-7.283595333333333,112.79672216666667,2,09,0.82,20.6,M,17.3,M,,0000,"$GPGGA,134533.00,0717.01572,S,11247.80333,E,2,09,0.82,20.6,M,17.3,M,,0000*79",1.0,1.04
1749735934.2882345,2025-06-12 20:45:34.288,-7.2835955,112.796722,2,08,0.82,20.7,M,17.3,M,,0000,"$GPGGA,134534.00,0717.01573,S,11247.80332,E,2,08,0.82,20.7,M,17.3,M,,0000*7E",1.0,1.04
1749735935.28667,2025-06-12 20:45:35.286,-7.2835955,112.79672183333334,2,08,0.82,20.8,M,17.3,M,,0000,"$GPGGA,134535.00,0717.01573,S,11247.80331,E,2,08,0.82,20.8,M,17.3,M,,0000*73",1.0,1.03
1749735936.2860196,2025-06-12 20:45:36.286,-7.2835945,112.796722,2,08,0.82,20.9,M,17.3,M,,0000,"$GPGGA,134536.00,0717.01567,S,11247.80332,E,2,08,0.82,20.9,M,17.3,M,,0000*77",1.0,1.03
1749735937.2850232,2025-06-12 20:45:37.285,-7.283594833333333,112.79672216666667,2,08,0.82,20.8,M,17.3,M,,0000,"$GPGGA,134537.00,0717.01569,S,11247.80333,E,2,08,0.82,20.8,M,17.3,M,,0000*78",1.0,1.03
1749735938.28699,2025-06-12 20:45:38.286,-7.2835955,112.79672166666667,2,09,0.79,20.6,M,17.3,M,,0000,"$GPGGA,134538.00,0717.01573,S,11247.80330,E,2,09,0.79,20.6,M,17.3,M,,0000*74",1.0,1.03
1749735939.2881587,2025-06-12 20:45:39.288,-7.283596,112.7967215,2,09,0.79,20.7,M,17.3,M,,0000,"$GPGGA,134539.00,0717.01576,S,11247.80329,E,2,09,0.79,20.7,M,17.3,M,,0000*79",1.0,1.03
1749735940.285544,2025-06-12 20:45:40.285,-7.283595666666667,112.796722,2,09,0.79,20.6,M,17.3,M,,0000,"$GPGGA,134540.00,0717.01574,S,11247.80332,E,2,09,0.79,20.6,M,17.3,M,,0000*7E",1.0,1.03
1749735941.2886367,2025-06-12 20:45:41.288,-7.283594833333333,112.79672233333334,2,09,0.79,20.3,M,17.3,M,,0000,"$GPGGA,134541.00,0717.01569,S,11247.80334,E,2,09,0.79,20.3,M,17.3,M,,0000*70",1.0,1.03
1749735942.2903137,2025-06-12 20:45:42.290,-7.283594833333333,112.79672266666667,2,09,0.80,20.2,M,17.3,M,,0000,"$GPGGA,134542.00,0717.01569,S,11247.80336,E,2,09,0.80,20.2,M,17.3,M,,0000*76",1.0,1.02
1749735943.2857413,2025-06-12 20:45:43.285,-7.283595166666666,112.79672216666667,2,08,0.82,20.1,M,17.3,M,,0000,"$GPGGA,134543.00,0717.01571,S,11247.80333,E,2,08,0.82,20.1,M,17.3,M,,0000*7B",1.0,1.02
1749735944.28112,2025-06-12 20:45:44.281,-7.2835955,112.796722,2,08,0.83,20.0,M,17.3,M,,0000,"$GPGGA,134544.00,0717.01573,S,11247.80332,E,2,08,0.83,20.0,M,17.3,M,,0000*7F",1.0,1.02
1749735945.2849994,2025-06-12 20:45:45.284,-7.283595666666667,112.796722,2,08,0.83,19.9,M,17.3,M,,0000,"$GPGGA,134545.00,0717.01574,S,11247.80332,E,2,08,0.83,19.9,M,17.3,M,,0000*7A",1.0,1.02
1749735946.2890582,2025-06-12 20:45:46.289,-7.283595666666667,112.79672166666667,2,09,0.79,19.7,M,17.3,M,,0000,"$GPGGA,134546.00,0717.01574,S,11247.80330,E,2,09,0.79,19.7,M,17.3,M,,0000*71",1.0,1.02
1749735947.2896712,2025-06-12 20:45:47.289,-7.2835955,112.79672166666667,2,09,0.79,19.7,M,17.3,M,,0000,"$GPGGA,134547.00,0717.01573,S,11247.80330,E,2,09,0.79,19.7,M,17.3,M,,0000*77",1.0,1.02
1749735948.291917,2025-06-12 20:45:48.291,-7.283595166666666,112.7967215,2,09,0.79,19.7,M,17.3,M,,0000,"$GPGGA,134548.00,0717.01571,S,11247.80329,E,2,09,0.79,19.7,M,17.3,M,,0000*72",1.0,1.02
1749735949.2870862,2025-06-12 20:45:49.287,-7.283594833333333,112.796721,2,09,0.79,19.9,M,17.3,M,,0000,"$GPGGA,134549.00,0717.01569,S,11247.80326,E,2,09,0.79,19.9,M,17.3,M,,0000*7B",1.0,1.02
1749735950.2824988,2025-06-12 20:45:50.282,-7.2835945,112.79672133333334,1,09,0.79,19.8,M,17.3,M,,,"$GPGGA,134550.00,0717.01567,S,11247.80328,E,1,09,0.79,19.8,M,17.3,M,,*71",1.0,1.02
1749735951.2959697,2025-06-12 20:45:51.295,-7.283594166666667,112.79672133333334,1,09,0.79,19.9,M,17.3,M,,,"$GPGGA,134551.00,0717.01565,S,11247.80328,E,1,09,0.79,19.9,M,17.3,M,,*73",1.0,1.02
1749735952.2820153,2025-06-12 20:45:52.282,-7.283594,112.79672133333334,1,09,0.79,19.9,M,17.3,M,,,"$GPGGA,134552.00,0717.01564,S,11247.80328,E,1,09,0.79,19.9,M,17.3,M,,*71",1.0,1.02
1749735953.282948,2025-06-12 20:45:53.282,-7.283594166666667,112.79672083333334,1,09,0.79,19.9,M,17.3,M,,,"$GPGGA,134553.00,0717.01565,S,11247.80325,E,1,09,0.79,19.9,M,17.3,M,,*7C",1.0,1.02
1749735954.2866566,2025-06-12 20:45:54.286,-7.283594166666667,112.79672016666666,1,09,0.79,20.0,M,17.3,M,,,"$GPGGA,134554.00,0717.01565,S,11247.80321,E,1,09,0.79,20.0,M,17.3,M,,*7C",1.0,1.02
1749735955.2807577,2025-06-12 20:45:55.280,-7.283594166666667,112.79672016666666,1,09,0.79,19.9,M,17.3,M,,,"$GPGGA,134555.00,0717.01565,S,11247.80321,E,1,09,0.79,19.9,M,17.3,M,,*7E",1.0,1.02
1749735956.2806265,2025-06-12 20:45:56.280,-7.2835945,112.7967205,1,09,0.79,20.1,M,17.3,M,,,"$GPGGA,134556.00,0717.01567,S,11247.80323,E,1,09,0.79,20.1,M,17.3,M,,*7F",1.0,1.02
1749735957.2827766,2025-06-12 20:45:57.282,-7.283594666666667,112.796722,1,09,0.79,19.8,M,17.3,M,,,"$GPGGA,134557.00,0717.01568,S,11247.80332,E,1,09,0.79,19.8,M,17.3,M,,*72",1.0,1.02
1749735958.2828274,2025-06-12 20:45:58.282,-7.283595166666666,112.79672233333334,1,09,0.79,20.0,M,17.3,M,,,"$GPGGA,134558.00,0717.01571,S,11247.80334,E,1,09,0.79,20.0,M,17.3,M,,*71",1.0,1.02
1749735959.281702,2025-06-12 20:45:59.281,-7.283595166666666,112.79672266666667,1,09,0.79,20.0,M,17.3,M,,,"$GPGGA,134559.00,0717.01571,S,11247.80336,E,1,09,0.79,20.0,M,17.3,M,,*72",1.0,1.01
1749735960.2985358,2025-06-12 20:46:00.298,-7.283594666666667,112.79672716666667,1,09,0.79,19.8,M,17.3,M,,,"$GPGGA,134600.00,0717.01568,S,11247.80363,E,1,09,0.79,19.8,M,17.3,M,,*77",1.0,1.01
1749735961.2971013,2025-06-12 20:46:01.297,-7.283594,112.796732,2,09,0.79,19.7,M,17.3,M,,0000,"$GPGGA,134601.00,0717.01564,S,11247.80392,E,2,09,0.79,19.7,M,17.3,M,,0000*78",1.0,1.01
1749735962.2915156,2025-06-12 20:46:02.291,-7.2835935,112.79673733333334,2,09,0.79,19.6,M,17.3,M,,0000,"$GPGGA,134602.00,0717.01561,S,11247.80424,E,2,09,0.79,19.6,M,17.3,M,,0000*75",1.0,1.01
1749735963.297285,2025-06-12 20:46:03.297,-7.283593333333333,112.79674216666666,2,09,0.79,19.4,M,17.3,M,,0000,"$GPGGA,134603.00,0717.01560,S,11247.80453,E,2,09,0.79,19.4,M,17.3,M,,0000*77",1.0,1.01
1749735964.2967975,2025-06-12 20:46:04.296,-7.2835928333333335,112.79674783333333,2,09,0.79,19.2,M,17.3,M,,0000,"$GPGGA,134604.00,0717.01557,S,11247.80487,E,2,09,0.79,19.2,M,17.3,M,,0000*7B",1.0,1.01
1749735965.296759,2025-06-12 20:46:05.296,-7.2835928333333335,112.79675333333333,2,09,0.79,19.0,M,17.3,M,,0000,"$GPGGA,134605.00,0717.01557,S,11247.80520,E,2,09,0.79,19.0,M,17.3,M,,0000*74",1.0,1.01
1749735966.3045166,2025-06-12 20:46:06.304,-7.283592166666667,112.79675883333333,2,09,0.79,19.0,M,17.3,M,,0000,"$GPGGA,134606.00,0717.01553,S,11247.80553,E,2,09,0.79,19.0,M,17.3,M,,0000*77",1.0,1.01
1749735967.300511,2025-06-12 20:46:07.300,-7.2835915,112.79676483333333,2,09,0.79,18.9,M,17.3,M,,0000,"$GPGGA,134607.00,0717.01549,S,11247.80589,E,2,09,0.79,18.9,M,17.3,M,,0000*72",1.0,1.01
1749735968.2994862,2025-06-12 20:46:08.299,-7.283591166666667,112.79677016666666,2,09,0.79,18.8,M,17.3,M,,0000,"$GPGGA,134608.00,0717.01547,S,11247.80621,E,2,09,0.79,18.8,M,17.3,M,,0000*73",1.0,1.01
1749735969.296818,2025-06-12 20:46:09.296,-7.283591166666667,112.7967745,2,09,0.79,18.8,M,17.3,M,,0000,"$GPGGA,134609.00,0717.01547,S,11247.80647,E,2,09,0.79,18.8,M,17.3,M,,0000*72",1.0,1.01
1749735970.2964642,2025-06-12 20:46:10.296,-7.283590666666667,112.79678033333333,2,09,0.79,18.7,M,17.3,M,,0000,"$GPGGA,134610.00,0717.01544,S,11247.80682,E,2,09,0.79,18.7,M,17.3,M,,0000*7F",1.0,1.01
1749735971.298546,2025-06-12 20:46:11.298,-7.2835905,112.796785,2,09,0.79,18.6,M,17.3,M,,0000,"$GPGGA,134611.00,0717.01543,S,11247.80710,E,2,09,0.79,18.6,M,17.3,M,,0000*72",1.0,1.01
1749735972.3001564,2025-06-12 20:46:12.300,-7.283591,112.79679016666667,2,09,0.79,18.9,M,17.3,M,,0000,"$GPGGA,134612.00,0717.01546,S,11247.80741,E,2,09,0.79,18.9,M,17.3,M,,0000*7F",1.0,1.01
1749735973.2944715,2025-06-12 20:46:13.294,-7.283591,112.79679533333334,2,09,0.79,18.9,M,17.3,M,,0000,"$GPGGA,134613.00,0717.01546,S,11247.80772,E,2,09,0.79,18.9,M,17.3,M,,0000*7E",1.0,1.01
1749735974.3002527,2025-06-12 20:46:14.300,-7.283591,112.796801,2,09,0.79,18.8,M,17.3,M,,0000,"$GPGGA,134614.00,0717.01546,S,11247.80806,E,2,09,0.79,18.8,M,17.3,M,,0000*74",1.0,1.01
1749735975.2986276,2025-06-12 20:46:15.298,-7.283590666666667,112.79680616666667,2,09,0.79,19.0,M,17.3,M,,0000,"$GPGGA,134615.00,0717.01544,S,11247.80837,E,2,09,0.79,19.0,M,17.3,M,,0000*7C",1.0,1.01
1749735976.2975054,2025-06-12 20:46:16.297,-7.283590333333334,112.7968105,2,09,0.79,18.9,M,17.3,M,,0000,"$GPGGA,134616.00,0717.01542,S,11247.80863,E,2,09,0.79,18.9,M,17.3,M,,0000*70",1.0,1.01
1749735977.2976174,2025-06-12 20:46:17.297,-7.2835905,112.79681466666666,2,09,0.79,18.9,M,17.3,M,,0000,"$GPGGA,134617.00,0717.01543,S,11247.80888,E,2,09,0.79,18.9,M,17.3,M,,0000*75",1.0,1.01
1749735978.3007295,2025-06-12 20:46:18.300,-7.283591666666666,112.7968195,2,09,0.79,18.9,M,17.3,M,,0000,"$GPGGA,134618.00,0717.01550,S,11247.80917,E,2,09,0.79,18.9,M,17.3,M,,0000*7F",1.0,1.01
1749735979.2995331,2025-06-12 20:46:19.299,-7.283591166666667,112.79682433333333,2,09,0.79,18.9,M,17.3,M,,0000,"$GPGGA,134619.00,0717.01547,S,11247.80946,E,2,09,0.79,18.9,M,17.3,M,,0000*7C",1.0,1.01
1749735980.2901728,2025-06-12 20:46:20.290,-7.283591,112.7968285,2,08,0.84,19.0,M,17.3,M,,0000,"$GPGGA,134620.00,0717.01546,S,11247.80971,E,2,08,0.84,19.0,M,17.3,M,,0000*78",1.0,1.01
1749735981.2975645,2025-06-12 20:46:21.297,-7.2835895,112.796832,2,08,0.84,19.0,M,17.3,M,,0000,"$GPGGA,134621.00,0717.01537,S,11247.80992,E,2,08,0.84,19.0,M,17.3,M,,0000*72",1.0,1.01
1749735982.2995267,2025-06-12 20:46:22.299,-7.283586166666667,112.79683416666667,2,09,0.79,18.8,M,17.3,M,,0000,"$GPGGA,134622.00,0717.01517,S,11247.81005,E,2,09,0.79,18.8,M,17.3,M,,0000*7F",1.0,1.01
1749735983.2973535,2025-06-12 20:46:23.297,-7.283582,112.79683483333334,2,08,0.84,18.7,M,17.3,M,,0000,"$GPGGA,134623.00,0717.01492,S,11247.81009,E,2,08,0.84,18.7,M,17.3,M,,0000*72",1.0,1.01
1749735984.2963777,2025-06-12 20:46:24.296,-7.283578333333334,112.7968405,2,09,0.79,19.4,M,17.3,M,,0000,"$GPGGA,134624.00,0717.01470,S,11247.81043,E,2,09,0.79,19.4,M,17.3,M,,0000*76",1.0,1.01
1749735985.2981665,2025-06-12 20:46:25.298,-7.283574,112.79684016666667,2,09,0.79,19.5,M,17.3,M,,0000,"$GPGGA,134625.00,0717.01444,S,11247.81041,E,2,09,0.79,19.5,M,17.3,M,,0000*73",1.0,1.01
1749735986.29549,2025-06-12 20:46:26.295,-7.283569666666667,112.796843,2,09,0.79,19.5,M,17.3,M,,0000,"$GPGGA,134626.00,0717.01418,S,11247.81058,E,2,09,0.79,19.5,M,17.3,M,,0000*71",1.0,1.01
1749735987.2958362,2025-06-12 20:46:27.295,-7.2835615,112.79683933333334,2,09,0.79,18.8,M,17.3,M,,0000,"$GPGGA,134627.00,0717.01369,S,11247.81036,E,2,09,0.79,18.8,M,17.3,M,,0000*75",1.0,1.01
1749735988.2944791,2025-06-12 20:46:28.294,-7.283557,112.79683883333334,2,09,0.79,18.7,M,17.3,M,,0000,"$GPGGA,134628.00,0717.01342,S,11247.81033,E,2,09,0.79,18.7,M,17.3,M,,0000*79",1.0,1.01
1749735989.285704,2025-06-12 20:46:29.285,-7.283554,112.79683783333333,2,09,0.79,18.7,M,17.3,M,,0000,"$GPGGA,134629.00,0717.01324,S,11247.81027,E,2,09,0.79,18.7,M,17.3,M,,0000*7D",1.0,1.01
1749735990.3036234,2025-06-12 20:46:30.303,-7.283551,112.79683483333334,2,09,0.79,18.6,M,17.3,M,,0000,"$GPGGA,134630.00,0717.01306,S,11247.81009,E,2,09,0.79,18.6,M,17.3,M,,0000*78",1.0,1.01
1749735991.2951465,2025-06-12 20:46:31.295,-7.283547833333333,112.7968325,2,09,0.79,18.6,M,17.3,M,,0000,"$GPGGA,134631.00,0717.01287,S,11247.80995,E,2,09,0.79,18.6,M,17.3,M,,0000*7C",1.0,1.01
1749735992.3011715,2025-06-12 20:46:32.301,-7.283544666666667,112.796828,2,09,0.79,18.5,M,17.3,M,,0000,"$GPGGA,134632.00,0717.01268,S,11247.80968,E,2,09,0.79,18.5,M,17.3,M,,0000*7F",1.0,1.01
1749735993.2993462,2025-06-12 20:46:33.299,-7.283542166666667,112.79682366666667,2,09,0.79,18.5,M,17.3,M,,0000,"$GPGGA,134633.00,0717.01253,S,11247.80942,E,2,09,0.79,18.5,M,17.3,M,,0000*7E",1.0,1.01
1749735994.3008063,2025-06-12 20:46:34.300,-7.283541166666667,112.79681933333333,2,09,0.79,18.7,M,17.3,M,,0000,"$GPGGA,134634.00,0717.01247,S,11247.80916,E,2,09,0.79,18.7,M,17.3,M,,0000*7F",1.0,1.01
1749735995.2964902,2025-06-12 20:46:35.296,-7.283540833333333,112.79681466666666,2,09,0.92,19.4,M,17.3,M,,0000,"$GPGGA,134635.00,0717.01245,S,11247.80888,E,2,09,0.92,19.4,M,17.3,M,,0000*7D",1.0,1.01
1749735996.3027098,2025-06-12 20:46:36.302,-7.2835415,112.7968105,2,09,0.89,19.7,M,17.3,M,,0000,"$GPGGA,134636.00,0717.01249,S,11247.80863,E,2,09,0.89,19.7,M,17.3,M,,0000*7E",1.0,1.01
1749735997.3008032,2025-06-12 20:46:37.300,-7.283543166666667,112.79680733333333,2,09,0.82,19.6,M,17.3,M,,0000,"$GPGGA,134637.00,0717.01259,S,11247.80844,E,2,09,0.82,19.6,M,17.3,M,,0000*71",1.0,1.01
1749735998.300637,2025-06-12 20:46:38.300,-7.2835435,112.7968035,2,09,0.89,19.6,M,17.3,M,,0000,"$GPGGA,134638.00,0717.01261,S,11247.80821,E,2,09,0.89,19.6,M,17.3,M,,0000*7D",1.0,1.01
1749735999.2993307,2025-06-12 20:46:39.299,-7.2835445,112.7967995,2,09,0.89,19.6,M,17.3,M,,0000,"$GPGGA,134639.00,0717.01267,S,11247.80797,E,2,09,0.89,19.6,M,17.3,M,,0000*78",1.0,1.01
1749736000.2953486,2025-06-12 20:46:40.295,-7.283545,112.79679583333333,2,08,0.92,19.4,M,17.3,M,,0000,"$GPGGA,134640.00,0717.01270,S,11247.80775,E,2,08,0.92,19.4,M,17.3,M,,0000*75",1.0,1.01
1749736001.2956316,2025-06-12 20:46:41.295,-7.2835455,112.79679083333333,2,08,0.92,19.4,M,17.3,M,,0000,"$GPGGA,134641.00,0717.01273,S,11247.80745,E,2,08,0.92,19.4,M,17.3,M,,0000*74",1.0,1.01
1749736002.2931318,2025-06-12 20:46:42.293,-7.283545666666667,112.7967865,2,08,0.92,19.4,M,17.3,M,,0000,"$GPGGA,134642.00,0717.01274,S,11247.80719,E,2,08,0.92,19.4,M,17.3,M,,0000*79",1.0,1.01
1749736003.2973845,2025-06-12 20:46:43.297,-7.283546,112.79678166666666,2,08,0.82,19.5,M,17.3,M,,0000,"$GPGGA,134643.00,0717.01276,S,11247.80690,E,2,08,0.82,19.5,M,17.3,M,,0000*7A",1.0,1.01
1749736004.2989848,2025-06-12 20:46:44.298,-7.283546333333334,112.7967775,2,08,0.82,19.3,M,17.3,M,,0000,"$GPGGA,134644.00,0717.01278,S,11247.80665,E,2,08,0.82,19.3,M,17.3,M,,0000*7F",1.0,1.01
1749736005.2987506,2025-06-12 20:46:45.298,-7.2835465,112.79677366666667,2,08,0.82,19.0,M,17.3,M,,0000,"$GPGGA,134645.00,0717.01279,S,11247.80642,E,2,08,0.82,19.0,M,17.3,M,,0000*79",1.0,1.01
1749736006.2990165,2025-06-12 20:46:46.299,-7.283546833333333,112.79676933333333,2,07,0.92,19.0,M,17.3,M,,0000,"$GPGGA,134646.00,0717.01281,S,11247.80616,E,2,07,0.92,19.0,M,17.3,M,,0000*72",1.0,1.01
1749736007.3027408,2025-06-12 20:46:47.302,-7.283544,112.79676483333333,2,08,0.89,18.5,M,17.3,M,,0000,"$GPGGA,134647.00,0717.01264,S,11247.80589,E,2,08,0.89,18.5,M,17.3,M,,0000*7C",1.0,1.01
1749736008.3024795,2025-06-12 20:46:48.302,-7.2835426666666665,112.79675933333333,2,08,0.89,18.4,M,17.3,M,,0000,"$GPGGA,134648.00,0717.01256,S,11247.80556,E,2,08,0.89,18.4,M,17.3,M,,0000*71",1.0,1.01
1749736009.2957804,2025-06-12 20:46:49.295,-7.283542,112.79675399999999,2,08,0.84,18.1,M,17.3,M,,0000,"$GPGGA,134649.00,0717.01252,S,11247.80524,E,2,08,0.84,18.1,M,17.3,M,,0000*79",1.0,1.01
1749736010.296753,2025-06-12 20:46:50.296,-7.283543833333334,112.7967485,2,07,0.88,17.8,M,17.3,M,,0000,"$GPGGA,134650.00,0717.01263,S,11247.80491,E,2,07,0.88,17.8,M,17.3,M,,0000*79",1.0,1.01
1749736011.3182647,2025-06-12 20:46:51.318,-7.283547333333333,112.79674433333334,2,08,0.84,17.7,M,17.3,M,,0000,"$GPGGA,134651.00,0717.01284,S,11247.80466,E,2,08,0.84,17.7,M,17.3,M,,0000*75",1.0,1.01
1749736012.2996178,2025-06-12 20:46:52.299,-7.2835505,112.79674233333333,2,08,0.92,17.5,M,17.3,M,,0000,"$GPGGA,134652.00,0717.01303,S,11247.80454,E,2,08,0.92,17.5,M,17.3,M,,0000*7C",1.0,1.01
1749736013.294959,2025-06-12 20:46:53.294,-7.283553166666667,112.796742,2,08,0.92,17.3,M,17.3,M,,0000,"$GPGGA,134653.00,0717.01319,S,11247.80452,E,2,08,0.92,17.3,M,17.3,M,,0000*76",1.0,1.01
1749736014.300441,2025-06-12 20:46:54.300,-7.2835575,112.79674066666666,2,08,0.92,17.4,M,17.3,M,,0000,"$GPGGA,134654.00,0717.01345,S,11247.80444,E,2,08,0.92,17.4,M,17.3,M,,0000*78",1.0,1.01
1749736015.3015149,2025-06-12 20:46:55.301,-7.283563,112.796739,2,08,0.92,17.4,M,17.3,M,,0000,"$GPGGA,134655.00,0717.01378,S,11247.80434,E,2,08,0.92,17.4,M,17.3,M,,0000*70",1.0,1.01
1749736016.2985368,2025-06-12 20:46:56.298,-7.283567166666667,112.7967385,2,08,0.92,17.3,M,17.3,M,,0000,"$GPGGA,134656.00,0717.01403,S,11247.80431,E,2,08,0.92,17.3,M,17.3,M,,0000*7A",1.0,1.01
1749736017.299907,2025-06-12 20:46:57.299,-7.2835715,112.796739,2,08,0.92,17.2,M,17.3,M,,0000,"$GPGGA,134657.00,0717.01429,S,11247.80434,E,2,08,0.92,17.2,M,17.3,M,,0000*77",1.0,1.01
1749736018.2981374,2025-06-12 20:46:58.298,-7.283576166666666,112.79673883333334,2,08,0.92,17.3,M,17.3,M,,0000,"$GPGGA,134658.00,0717.01457,S,11247.80433,E,2,08,0.92,17.3,M,17.3,M,,0000*77",1.0,1.01
1749736019.3022518,2025-06-12 20:46:59.302,-7.283579666666666,112.79674,2,09,0.82,17.2,M,17.3,M,,0000,"$GPGGA,134659.00,0717.01478,S,11247.80440,E,2,09,0.82,17.2,M,17.3,M,,0000*7E",1.0,1.01
1749736020.2975934,2025-06-12 20:47:00.297,-7.283581666666667,112.79674233333333,2,08,0.92,16.7,M,17.3,M,,0000,"$GPGGA,134700.00,0717.01490,S,11247.80454,E,2,08,0.92,16.7,M,17.3,M,,0000*74",1.0,1.01
1749736021.29846,2025-06-12 20:47:01.298,-7.2835845,112.79674416666667,2,07,0.92,16.9,M,17.3,M,,0000,"$GPGGA,134701.00,0717.01507,S,11247.80465,E,2,07,0.92,16.9,M,17.3,M,,0000*79",1.0,1.01
1749736022.2878885,2025-06-12 20:47:02.287,-7.283586333333333,112.79674483333334,2,07,0.92,17.2,M,17.3,M,,0000,"$GPGGA,134702.00,0717.01518,S,11247.80469,E,2,07,0.92,17.2,M,17.3,M,,0000*72",1.0,1.01
1749736023.2860882,2025-06-12 20:47:03.286,-7.283586166666667,112.7967445,2,07,0.92,17.5,M,17.3,M,,0000,"$GPGGA,134703.00,0717.01517,S,11247.80467,E,2,07,0.92,17.5,M,17.3,M,,0000*75",1.0,1.01
1749736024.2855103,2025-06-12 20:47:04.285,-7.283586,112.79674333333334,2,09,0.79,17.7,M,17.3,M,,0000,"$GPGGA,134704.00,0717.01516,S,11247.80460,E,2,09,0.79,17.7,M,17.3,M,,0000*7D",1.0,1.01
1749736025.2887847,2025-06-12 20:47:05.288,-7.283587166666667,112.7967405,2,09,0.79,18.4,M,17.3,M,,0000,"$GPGGA,134705.00,0717.01523,S,11247.80443,E,2,09,0.79,18.4,M,17.3,M,,0000*77",1.0,1.01
1749736026.290716,2025-06-12 20:47:06.290,-7.283588166666667,112.796738,2,09,0.79,19.1,M,17.3,M,,0000,"$GPGGA,134706.00,0717.01529,S,11247.80428,E,2,09,0.79,19.1,M,17.3,M,,0000*77",1.0,1.01
